[
  {
    "id": "metlife",
    "name": "MetLife Stadium",
    "city": "East Rutherford, NJ",
    "displayCity": "New York / New Jersey",
    "country": "USA",
    "lat": 40.8128,
    "lng": -74.0742,
    "capacity": 82500,
    "timezone": "America/New_York",
    "hostsRounds": ["group", "r32", "r16", "qf", "sf", "final"]
  },
  {
    "id": "sofi",
    "name": "SoFi Stadium",
    "city": "Inglewood, CA",
    "displayCity": "Los Angeles",
    "country": "USA",
    "lat": 33.9535,
    "lng": -118.3392,
    "capacity": 70240,
    "timezone": "America/Los_Angeles",
    "hostsRounds": ["group", "r32", "r16", "qf", "sf", "3rd-place"]
  },
  {
    "id": "att",
    "name": "AT&T Stadium",
    "city": "Arlington, TX",
    "displayCity": "Dallas",
    "country": "USA",
    "lat": 32.7473,
    "lng": -97.0945,
    "capacity": 80000,
    "timezone": "America/Chicago",
    "hostsRounds": ["group", "r32", "r16", "qf"]
  },
  {
    "id": "hardrock",
    "name": "Hard Rock Stadium",
    "city": "Miami Gardens, FL",
    "displayCity": "Miami",
    "country": "USA",
    "lat": 25.958,
    "lng": -80.2389,
    "capacity": 65326,
    "timezone": "America/New_York",
    "hostsRounds": ["group", "r32", "r16", "qf", "sf"]
  },
  {
    "id": "mercedes",
    "name": "Mercedes-Benz Stadium",
    "city": "Atlanta, GA",
    "displayCity": "Atlanta",
    "country": "USA",
    "lat": 33.7554,
    "lng": -84.4008,
    "capacity": 71000,
    "timezone": "America/New_York",
    "hostsRounds": ["group", "r32", "r16"]
  },
  {
    "id": "nrg",
    "name": "NRG Stadium",
    "city": "Houston, TX",
    "displayCity": "Houston",
    "country": "USA",
    "lat": 29.6847,
    "lng": -95.4107,
    "capacity": 72220,
    "timezone": "America/Chicago",
    "hostsRounds": ["group", "r32", "r16"]
  },
  {
    "id": "arrowhead",
    "name": "Arrowhead Stadium",
    "city": "Kansas City, MO",
    "displayCity": "Kansas City",
    "country": "USA",
    "lat": 39.0489,
    "lng": -94.484,
    "capacity": 76416,
    "timezone": "America/Chicago",
    "hostsRounds": ["group", "r32", "r16"]
  },
  {
    "id": "levis",
    "name": "Levi's Stadium",
    "city": "Santa Clara, CA",
    "displayCity": "San Francisco Bay Area",
    "country": "USA",
    "lat": 37.4033,
    "lng": -121.9694,
    "capacity": 68500,
    "timezone": "America/Los_Angeles",
    "hostsRounds": ["group", "r32", "r16"]
  },
  {
    "id": "lumen",
    "name": "Lumen Field",
    "city": "Seattle, WA",
    "displayCity": "Seattle",
    "country": "USA",
    "lat": 47.5952,
    "lng": -122.3316,
    "capacity": 69000,
    "timezone": "America/Los_Angeles",
    "hostsRounds": ["group", "r32", "r16"]
  },
  {
    "id": "gillette",
    "name": "Gillette Stadium",
    "city": "Foxborough, MA",
    "displayCity": "Boston",
    "country": "USA",
    "lat": 42.0909,
    "lng": -71.2643,
    "capacity": 65878,
    "timezone": "America/New_York",
    "hostsRounds": ["group", "r32", "r16"]
  },
  {
    "id": "lincoln",
    "name": "Lincoln Financial Field",
    "city": "Philadelphia, PA",
    "displayCity": "Philadelphia",
    "country": "USA",
    "lat": 39.9008,
    "lng": -75.1675,
    "capacity": 69796,
    "timezone": "America/New_York",
    "hostsRounds": ["group", "r32", "r16"]
  },
  {
    "id": "azteca",
    "name": "Estadio Azteca",
    "city": "Mexico City",
    "displayCity": "Mexico City",
    "country": "Mexico",
    "lat": 19.3029,
    "lng": -99.1505,
    "capacity": 87523,
    "timezone": "America/Mexico_City",
    "hostsRounds": ["group", "r32", "r16"]
  },
  {
    "id": "akron",
    "name": "Estadio Akron",
    "city": "Zapopan",
    "displayCity": "Guadalajara",
    "country": "Mexico",
    "lat": 20.6821,
    "lng": -103.4625,
    "capacity": 49850,
    "timezone": "America/Mexico_City",
    "hostsRounds": ["group", "r32"]
  },
  {
    "id": "bbva",
    "name": "Estadio BBVA",
    "city": "Guadalupe",
    "displayCity": "Monterrey",
    "country": "Mexico",
    "lat": 25.6698,
    "lng": -100.2447,
    "capacity": 53500,
    "timezone": "America/Monterrey",
    "hostsRounds": ["group", "r32"]
  },
  {
    "id": "bmo",
    "name": "BMO Field",
    "city": "Toronto, ON",
    "displayCity": "Toronto",
    "country": "Canada",
    "lat": 43.6332,
    "lng": -79.4186,
    "capacity": 30000,
    "timezone": "America/Toronto",
    "hostsRounds": ["group", "r32"]
  },
  {
    "id": "bcplace",
    "name": "BC Place",
    "city": "Vancouver, BC",
    "displayCity": "Vancouver",
    "country": "Canada",
    "lat": 49.2768,
    "lng": -123.112,
    "capacity": 54500,
    "timezone": "America/Vancouver",
    "hostsRounds": ["group", "r32"]
  }
]
